City_ID,City,Lat,Lng,Max Temp,Humidity,Cloudiness,Wind Speed,Country,Date
0,tarakan,3.3,117.6333,30.72,79,40,2.57,ID,1700375448
1,fort bragg,35.139,-79.006,12.68,57,0,3.6,US,1700375553
2,ancud,-41.8697,-73.8203,9.84,88,100,2.79,CL,1700375553
3,adamstown,-25.066,-130.1015,21.82,86,100,9.88,PN,1700375553
4,hovd,48.0056,91.6419,2.55,68,90,1.25,MN,1700375554
5,puerto ayora,-0.7393,-90.3518,20.86,96,51,2.78,EC,1700375554
6,okhotsk,59.3833,143.3,-12.06,77,18,7.65,RU,1700375554
7,invercargill,-46.4,168.35,13.34,68,48,2.68,NZ,1700375400
8,brisas de zicatela,15.8369,-97.0419,25.67,89,13,1.53,MX,1700375555
9,tiksi,71.6872,128.8694,-30.31,100,75,2.4,RU,1700375555
10,road town,18.4167,-64.6167,28.05,78,100,7.31,VG,1700375555
11,san cristobal,7.7669,-72.225,19.76,88,45,0.9,VE,1700375556
12,blackmans bay,-43.0167,147.3167,17.07,78,98,0.45,AU,1700375556
13,anadyr,64.75,177.4833,-14.72,85,40,4.0,RU,1700375439
14,waitangi,-43.9535,-176.5597,11.01,96,100,3.13,NZ,1700375557
15,colonia menno,-22.3667,-59.8167,26.06,65,96,4.87,PY,1700375557
16,lagdo,9.05,13.7333,27.14,21,100,1.39,CM,1700375558
17,pacific grove,36.6177,-121.9166,15.37,89,70,3.58,US,1700375558
18,port-aux-francais,-49.35,70.2167,4.94,94,100,10.71,TF,1700375558
19,bethel,41.3712,-73.414,3.05,75,0,0.0,US,1700375558
20,kone,-21.0595,164.8658,25.44,70,39,2.48,NC,1700375559
21,michurinsk,52.8978,40.4907,-3.89,70,45,3.57,RU,1700375559
22,harper,4.375,-7.7169,25.86,86,38,1.68,LR,1700375559
23,praia,14.9215,-23.5087,24.3,60,0,4.12,CV,1700375227
24,weno,7.4515,151.8468,29.97,84,75,0.0,FM,1700375560
25,tura,25.5198,90.2201,25.81,64,81,1.34,IN,1700375409
26,papatowai,-46.5619,169.4708,11.09,72,51,2.71,NZ,1700375561
27,port lincoln,-34.7333,135.8667,17.21,67,87,7.56,AU,1700375496
28,luderitz,-26.6481,15.1594,22.62,47,100,0.81,NA,1700375438
29,puerto natales,-51.7236,-72.4875,-1.15,92,18,1.07,CL,1700375562
30,turkmenbasy,40.0222,52.9552,16.43,41,0,5.14,TM,1700375562
31,saipan,15.1355,145.701,29.39,84,100,6.69,MP,1700375562
32,celestun,20.8667,-90.4,24.24,83,35,1.24,MX,1700375563
33,edinburgh of the seven seas,-37.0676,-12.3116,12.85,78,17,15.05,SH,1700375564
34,olonkinbyen,70.9221,-8.7187,0.43,90,99,1.78,SJ,1700375564
35,esquel,-42.9,-71.3167,5.2,95,100,3.0,AR,1700375564
36,viljandi,58.3639,25.59,-4.46,94,28,2.0,EE,1700375565
37,bredasdorp,-34.5322,20.0403,21.29,58,100,1.55,ZA,1700375565
38,hermanus,-34.4187,19.2345,19.57,68,100,3.16,ZA,1700375565
39,flin flon,54.7682,-101.865,-2.84,92,93,3.32,CA,1700375565
40,kayangel,8.0823,134.7173,28.93,79,97,6.41,PW,1700375566
41,kodiak,57.79,-152.4072,-3.27,54,0,3.09,US,1700375566
42,utrik,11.2278,169.8474,28.04,77,71,7.38,MH,1700375566
43,haiku-pauwela,20.9219,-156.3051,23.36,79,0,1.54,US,1700375567
44,pyay,18.8167,95.2167,26.57,77,94,4.78,MM,1700375567
45,grytviken,-54.2811,-36.5092,1.47,98,100,2.91,GS,1700375567
46,aitape,-3.1374,142.3475,28.84,78,43,4.81,PG,1700375568
47,vorgashor,67.5833,63.95,-28.61,100,100,0.99,RU,1700375568
48,bathsheba,13.2167,-59.5167,27.34,78,20,4.12,BB,1700375569
49,bilibino,68.0546,166.4372,-28.47,100,83,1.85,RU,1700375569
50,saint-philippe,-21.3585,55.7679,26.77,63,0,4.13,RE,1700375569
51,turpan,42.9333,89.1667,10.41,30,100,1.23,CN,1700375570
52,coruripe,-10.1256,-36.1756,24.01,85,4,3.87,BR,1700375570
53,mocoa,1.1493,-76.6466,21.78,87,100,2.42,CO,1700375570
54,ushuaia,-54.8,-68.3,-0.19,86,75,9.77,AR,1700375330
55,puerto san jose,13.9256,-90.8244,24.41,88,30,2.31,GT,1700375571
56,yemva,62.59,50.8594,-7.6,90,100,3.77,RU,1700375571
57,saudarkrokur,65.7461,-19.6394,-0.68,77,100,2.99,IS,1700375571
58,diapaga,12.0708,1.7889,25.27,21,92,3.57,BF,1700375572
59,keflavik,64.0049,-22.5624,1.24,86,75,2.57,IS,1700375572
60,eldama ravine,0.0516,35.7308,19.49,64,86,2.28,KE,1700375572
61,samho-rodongjagu,39.9475,127.8711,10.94,48,0,5.25,KP,1700375573
62,margate,51.3813,1.3862,12.15,81,44,5.36,GB,1700375573
63,tortoli,39.9256,9.6572,12.9,71,0,5.14,IT,1700375573
64,east london,-33.0153,27.9116,21.52,88,75,5.14,ZA,1700375287
65,zelenoborskiy,66.845,32.3622,-13.45,96,56,1.37,RU,1700375574
66,aktobe,50.2797,57.2072,-5.95,73,0,2.0,KZ,1700375575
67,isangel,-19.55,169.2667,28.06,78,75,1.03,VU,1700375575
68,avarua,-21.2078,-159.775,24.03,64,75,6.17,CK,1700375575
69,altoona,40.5187,-78.3947,4.56,71,0,2.24,US,1700375576
70,sirte,31.2089,16.5887,20.42,63,100,4.91,LY,1700375576
71,aasiaat,68.7098,-52.8699,-3.3,90,100,2.92,GL,1700375576
72,tondano,1.3038,124.9112,29.05,87,95,1.16,ID,1700375576
73,karratha,-20.7377,116.8463,35.0,35,8,8.2,AU,1700375577
74,aykhal,66.0,111.5,-22.89,97,100,0.29,RU,1700375577
75,fale old settlement,-9.3852,-171.2468,29.64,75,82,8.64,TK,1700375577
76,katsuren-haebaru,26.3369,127.8719,22.21,46,0,4.12,JP,1700375578
77,pandan,14.0453,124.1694,26.46,86,98,9.24,PH,1700375578
78,wingham,43.8879,-81.3114,6.27,85,12,3.17,CA,1700375578
79,sokoni,-6.4333,39.55,26.85,82,99,2.97,TZ,1700375579
80,ta`u,-14.2336,-169.5144,27.51,70,71,9.25,AS,1700375579
81,mata-utu,-13.2816,-176.1745,29.13,78,12,8.08,WF,1700375579
82,midvagur,62.0511,-7.1939,8.46,81,100,7.2,FO,1700375579
83,cabo san lucas,22.8909,-109.9124,26.95,83,0,0.45,MX,1700375580
84,port mathurin,-19.6833,63.4167,25.33,81,100,6.54,MU,1700375580
85,hawaiian paradise park,19.5933,-154.9731,22.73,89,100,1.54,US,1700375580
86,tonekabon,36.8163,50.8738,19.97,61,0,2.07,IR,1700375581
87,petropavlovsk-kamchatsky,53.0452,158.6483,1.33,98,100,8.0,RU,1700375581
88,kupang,-10.1667,123.5833,34.32,59,40,6.17,ID,1700375319
89,iskateley,67.6803,53.1512,-14.99,97,97,3.58,RU,1700375582
90,ust-nera,64.5667,143.2,-26.52,100,99,0.33,RU,1700375582
91,carnarvon,-24.8667,113.6333,27.66,58,4,8.21,AU,1700375303
92,cidreira,-30.1811,-50.2056,17.39,80,44,4.7,BR,1700375583
93,margaret river,-33.95,115.0667,21.93,54,9,7.83,AU,1700375583
94,klyuchi,52.2667,79.1667,0.03,69,100,8.65,RU,1700375584
95,northam,51.0333,-4.2167,14.25,90,22,13.03,GB,1700375584
96,mujiayingzi,42.1167,118.7833,3.93,61,0,1.71,CN,1700375584
97,puerto rico,-26.796,-55.024,15.69,97,19,0.36,AR,1700375585
98,ballito,-29.539,31.2144,24.08,83,75,2.57,ZA,1700375585
99,albany,42.6001,-73.9662,1.41,80,5,1.34,US,1700375585
100,gadzhiyevo,69.2551,33.3362,-11.65,96,66,3.09,RU,1700375586
101,iqaluit,63.7506,-68.5145,-4.15,79,100,1.03,CA,1700375586
102,yellowknife,62.456,-114.3525,-3.66,96,100,6.17,CA,1700375586
103,tolanaro,-25.0319,46.9987,28.04,83,20,9.26,MG,1700375587
104,college,64.8569,-147.8028,-14.03,82,100,1.54,US,1700375587
105,usogorsk,63.4106,48.6872,-8.52,94,100,4.21,RU,1700375588
106,azna,33.6095,48.9307,14.15,41,0,1.69,IR,1700375588
107,stanley,54.868,-1.6985,9.01,90,20,3.6,GB,1700375588
108,sumenep,-7.0167,113.8667,32.36,50,11,3.87,ID,1700375589
109,cuauhtemoc,28.4167,-106.8667,13.18,73,21,2.39,MX,1700375589
110,enewetak,11.3474,162.3373,28.25,77,38,8.53,MH,1700375589
111,san pedro pochutla,15.7333,-96.4667,22.39,90,6,1.79,MX,1700375590
112,puerto baquerizo moreno,-0.9,-89.6,21.98,82,6,3.72,EC,1700375590
113,nguigmi,14.2495,13.1092,24.06,28,100,6.67,NE,1700375590
114,isafjordur,66.0755,-23.124,2.82,88,100,0.45,IS,1700375590
115,novoagansk,61.9449,76.6625,-19.04,96,82,3.91,RU,1700375591
116,aswan,24.0934,32.907,23.44,43,2,5.62,EG,1700375591
117,sanctuary point,-35.1114,150.629,25.67,66,8,8.63,AU,1700375591
118,port alfred,-33.5906,26.891,21.77,89,100,1.34,ZA,1700375592
119,buique,-8.6231,-37.1558,18.07,88,0,1.85,BR,1700375592
120,yuzhno-kurilsk,44.0306,145.8556,5.76,84,54,10.7,RU,1700375593
121,whitehorse,60.7161,-135.0538,-12.57,56,100,5.66,CA,1700375593
122,codrington,-38.2667,141.9667,16.9,66,82,4.88,AU,1700375593
123,thunder bay,48.4001,-89.3168,0.99,60,100,3.09,CA,1700375594
124,dudinka,69.4058,86.1778,-25.77,97,38,3.83,RU,1700375594
125,minas de marcona,-15.2119,-75.1103,13.19,88,82,3.79,PE,1700375595
126,santa cruz,-17.8,-63.1667,30.7,55,75,5.14,BO,1700375595
127,junction city,39.0286,-96.8314,11.89,69,0,1.79,US,1700375595
128,walvis bay,-22.9575,14.5053,17.27,49,0,1.19,NA,1700375596
129,callao,-12.0667,-77.15,18.73,82,0,2.57,PE,1700375491
130,hulan,45.9833,126.6,-1.94,84,6,4.66,CN,1700375597
131,kununurra,-15.7667,128.7333,39.99,27,40,3.09,AU,1700375597
132,jamestown,42.097,-79.2353,5.77,88,0,4.63,US,1700375597
133,lata,40.1629,-8.3327,14.4,91,27,1.27,PT,1700375598
134,kyrenia,35.3417,33.3167,17.75,47,13,14.16,CY,1700375598
135,salalah,17.0151,54.0924,29.05,65,20,1.03,OM,1700375504
136,talnakh,69.4865,88.3972,-26.0,100,91,1.05,RU,1700375598
137,mazatlan,23.2167,-106.4167,26.62,82,0,0.45,MX,1700375599
138,pickering,43.9001,-79.1329,4.15,71,5,5.45,CA,1700375599
139,hauterive,46.0901,3.4459,14.44,80,100,3.09,FR,1700375599
140,siwa oasis,29.2041,25.5195,18.6,47,0,8.64,EG,1700375600
141,tsiombe,-25.3,45.4833,34.38,31,0,1.87,MG,1700375600
142,cabanas,22.9758,-82.9219,24.45,72,100,4.58,CU,1700375601
143,west island,-12.1568,96.8225,27.99,69,100,5.14,CC,1700375601
144,thompson,55.7435,-97.8558,-12.91,85,75,0.0,CA,1700375602
145,tamanrasset,22.785,5.5228,13.95,28,0,3.09,DZ,1700375602
146,punta arenas,-53.15,-70.9167,3.06,60,0,5.66,CL,1700375603
147,georgetown,5.4112,100.3354,32.97,58,20,4.63,MY,1700375603
148,khovd,48.0056,91.6419,2.55,68,90,1.25,MN,1700375554
149,sao vicente,-23.9631,-46.3919,27.1,26,68,0.45,BR,1700375605
150,longyearbyen,78.2186,15.6401,-13.09,72,75,5.66,SJ,1700375605
151,pisco,-13.7,-76.2167,19.03,88,40,1.03,PE,1700375605
152,tha khanon,9.0302,98.9529,31.23,78,95,5.06,TH,1700375605
153,poronaysk,49.2167,143.1167,1.78,74,100,4.04,RU,1700375606
154,borazjan,29.2666,51.2159,23.27,63,100,1.95,IR,1700375606
155,qaqortoq,60.7167,-46.0333,0.08,97,100,2.15,GL,1700375606
156,vilyuchinsk,52.9306,158.4028,2.15,98,100,6.03,RU,1700375606
157,talcahuano,-36.7167,-73.1167,8.82,93,0,1.54,CL,1700375606
158,westerstede,53.25,7.9333,12.31,89,96,7.54,DE,1700375607
159,hamilton,39.1834,-84.5333,4.43,82,0,2.06,US,1700375491
160,insar,53.8653,44.3738,-5.65,71,4,2.03,RU,1700375607
161,karachi,24.9056,67.0822,25.9,31,0,3.6,PK,1700375569
162,dosso,13.049,3.1937,24.63,22,94,3.57,NE,1700375608
163,severo-yeniseyskiy,60.3725,93.0408,-3.57,94,100,2.68,RU,1700375608
164,egilsstadir,65.2653,-14.3948,1.95,93,75,3.6,IS,1700375609
165,troitsko-pechorsk,62.7084,56.1964,-9.06,93,100,3.13,RU,1700375609
166,plettenberg bay,-34.0527,23.3716,20.85,56,100,3.28,ZA,1700375609
167,brookings,44.3114,-96.7984,4.65,77,0,1.54,US,1700375610
168,capinzal,-27.3436,-51.6119,14.57,98,92,1.03,BR,1700375610
169,rongelap,11.1635,166.8941,28.04,78,100,7.67,MH,1700375610
170,vinh long,10.25,105.9667,29.99,56,74,2.99,VN,1700375377
171,kotel'nich,58.3089,48.348,-6.1,73,28,3.89,RU,1700375611
172,east end,34.5507,-92.341,10.79,48,5,0.89,US,1700375611
173,lebu,-37.6167,-73.65,9.17,90,23,2.2,CL,1700375611
174,mana,5.6592,-53.7767,25.37,93,12,3.52,GF,1700375612
175,nemuro,43.3236,145.575,9.1,68,39,7.39,JP,1700375607
176,geraldton,-28.7667,114.6,32.23,31,0,8.75,AU,1700375468
177,ukata,10.8312,5.8249,24.25,21,100,4.23,NG,1700375612
178,keila,59.3036,24.4131,-1.88,86,75,3.6,EE,1700375613
179,samarinda,-0.5,117.15,29.14,83,67,1.41,ID,1700375165
180,alexandria,31.2156,29.9553,21.31,50,100,10.19,EG,1700375613
181,uray,60.1247,64.7758,-11.18,94,21,1.79,RU,1700375614
182,saint-francois,46.4154,3.9054,14.25,83,100,2.57,FR,1700375614
183,angaur state,6.906,134.13,29.03,78,100,7.29,PW,1700375614
184,colonia,50.9333,6.95,13.23,81,75,3.09,DE,1700375581
185,fauske,67.2588,15.3918,1.02,93,100,2.11,NO,1700375615
186,island harbour,50.724,-1.2758,12.9,84,2,4.92,GB,1700375615
187,udachny,66.4167,112.4,-26.27,100,99,0.54,RU,1700375615
188,kingston,17.997,-76.7936,25.53,94,20,3.09,JM,1700375616
189,kyren,51.6828,102.1408,3.3,78,100,0.89,RU,1700375616
190,constitucion,-35.3333,-72.4167,10.68,83,97,2.84,CL,1700375617
191,yeppoon,-23.1333,150.7333,22.88,92,100,6.72,AU,1700375617
192,worland,44.0169,-107.9554,-0.36,74,0,2.57,US,1700375618
193,vinaros,40.4703,0.4756,14.76,71,7,0.84,ES,1700375618
194,dourbali,11.8091,15.8632,25.91,18,100,5.81,TD,1700375618
195,sulakyurt,40.1573,33.716,4.75,61,46,6.56,TR,1700375618
196,basco,20.4487,121.9702,23.61,63,99,9.4,PH,1700375619
197,santa elena de uairen,4.6167,-61.1333,19.5,89,2,1.71,VE,1700375619
198,imuris,30.7833,-110.8667,12.87,96,22,0.89,MX,1700375619
199,okha,53.5739,142.9478,-0.77,89,100,6.32,RU,1700375619
200,xinmin,41.9908,122.8253,3.39,74,5,2.63,CN,1700375620
201,crane,31.3974,-102.3501,14.03,81,37,8.35,US,1700375620
202,chachersk,52.9164,30.9179,-7.05,71,11,2.0,BY,1700375620
203,lamu,-2.2717,40.902,26.12,79,100,2.79,KE,1700375621
204,ketchikan,55.3422,-131.6461,4.99,93,100,6.17,US,1700375621
205,bukama,-9.2,25.85,25.31,79,95,1.26,CD,1700375621
206,veraval,20.9,70.3667,29.55,39,0,1.33,IN,1700375622
207,bel ombre,-4.6167,55.4167,29.91,74,75,3.09,SC,1700375622
208,kristiansund,63.1115,7.732,0.36,59,40,2.57,NO,1700375622
209,tazacorte,28.629,-17.9293,22.3,32,0,4.47,ES,1700375622
210,awjilah,29.1081,21.2869,18.83,48,9,7.63,LY,1700375623
211,bengkulu,-3.8004,102.2655,27.94,80,100,4.69,ID,1700375446
212,kargasok,59.0556,80.8572,-10.58,81,85,9.39,RU,1700375623
213,touros,-5.1989,-35.4608,25.45,83,18,4.25,BR,1700375624
214,hohhot,40.8106,111.6522,10.5,23,0,1.0,CN,1700375624
215,ringkobing,56.0901,8.244,5.57,93,100,9.56,DK,1700375357
216,tazovsky,67.4667,78.7,-19.93,97,100,4.54,RU,1700375625
217,katsuura,35.1333,140.3,16.06,69,100,5.99,JP,1700375419
218,uturoa,-16.7333,-151.4333,26.15,81,40,8.9,PF,1700375626
219,suksun,57.1431,57.3949,-6.43,73,100,5.88,RU,1700375626
220,kiruna,67.8557,20.2251,-14.49,85,100,2.57,SE,1700375626
221,puerto carreno,6.189,-67.4859,25.19,89,17,1.31,CO,1700375478
222,ribeira brava,32.65,-17.0667,19.84,79,2,1.37,PT,1700375627
223,kavaratti,10.5669,72.642,28.33,71,61,1.4,IN,1700375627
224,hammerfest,70.6634,23.6821,-2.75,63,75,4.63,NO,1700375627
225,djenne,13.9061,-4.5533,25.61,19,100,3.92,ML,1700375627
226,mandera,3.9366,41.867,23.26,95,100,3.7,KE,1700375628
227,la passe,45.5549,-0.8967,15.55,92,100,5.53,FR,1700375629
228,mil'kovo,55.6078,37.7956,-6.78,60,92,1.9,RU,1700375629
229,polyarnyy,69.1989,33.4478,-11.44,95,64,3.11,RU,1700375629
230,curaca,-8.9903,-39.9094,26.14,60,35,5.06,BR,1700375630
231,macapa,0.0389,-51.0664,27.99,83,0,2.57,BR,1700375630
232,nova sintra,14.8667,-24.7167,23.08,64,100,5.83,CV,1700375630
233,new badah,27.3417,68.0319,28.1,16,0,1.53,PK,1700375630
234,gwanda,-20.9333,29.0,32.08,19,44,3.78,ZW,1700375631
235,ayorou,14.7308,0.9174,24.66,18,100,4.32,NE,1700375631
236,tromso,69.6496,18.957,-1.99,86,75,5.14,NO,1700375631
237,ishigaki,24.3448,124.1572,22.07,60,75,5.14,JP,1700375632
238,ola,59.5833,151.2833,-7.7,75,99,4.96,RU,1700375633
239,ribeira grande,38.5167,-28.7,15.43,82,18,8.05,PT,1700375633
240,gornyye klyuchi,45.25,133.5,-3.21,94,100,3.09,RU,1700375633
241,labrador city,52.9463,-66.9114,-14.05,92,0,0.0,CA,1700375634
242,lethem,3.3803,-59.7968,25.8,71,6,4.2,GY,1700375634
243,upata,8.0086,-62.3989,23.44,93,9,2.39,VE,1700375635
244,tyukhtet,56.5389,89.3011,2.3,96,100,9.95,RU,1700375636
245,sumbawanga,-7.9667,31.6167,22.82,54,86,4.06,TZ,1700375636
246,flying fish cove,-10.4217,105.6791,27.82,69,100,4.63,CX,1700375637
247,dompu,-8.5356,118.4622,32.53,52,81,1.43,ID,1700375637
248,vieste,41.8825,16.175,13.79,62,40,2.37,IT,1700375638
249,howard springs,-12.497,131.047,35.55,44,60,5.0,AU,1700375639
250,tambo,-14.8,-73.9167,3.86,43,100,0.51,PE,1700375639
251,senanga,-16.1167,23.2667,32.86,20,7,2.93,ZM,1700375639
252,graaff-reinet,-32.2522,24.5308,26.88,24,63,2.97,ZA,1700375639
253,dailekh,28.8333,81.6667,23.3,49,6,2.31,NP,1700375640
254,san patricio,28.017,-97.5169,21.92,84,0,1.43,US,1700375640
255,rampur,28.8167,79.0333,26.28,36,0,3.46,IN,1700375594
256,jayapura,-2.5333,140.7,33.66,79,48,5.15,ID,1700375523
257,basoko,1.2391,23.616,25.52,82,100,0.39,CD,1700375641
258,marka,1.7159,44.7717,28.92,71,94,4.84,SO,1700375641
259,tamiahua,21.2667,-97.45,20.92,91,7,1.08,MX,1700375642
260,pskov,57.8136,28.3496,-3.05,93,100,2.0,RU,1700375642
261,timbiqui,2.7717,-77.6654,23.69,95,100,1.04,CO,1700375642
262,shakawe,-18.3667,21.85,34.26,17,37,3.38,BW,1700375643
263,ninghai,29.2892,121.4247,15.83,49,0,1.37,CN,1700375643
264,kailua-kona,19.6406,-155.9956,25.98,77,75,0.89,US,1700375644
265,san borja,-14.8167,-66.85,30.59,46,88,1.85,BO,1700375012
266,paraty,-23.2178,-44.7131,26.9,77,100,0.96,BR,1700375645
267,axim,4.8699,-2.2405,26.58,82,97,1.73,GH,1700375481
268,labasa,-16.4167,179.3833,24.92,84,66,3.93,FJ,1700375645
269,tual,-5.6667,132.75,28.78,70,13,3.18,ID,1700375646
270,thongwa,16.7619,96.5278,30.7,59,54,2.45,MM,1700375646
271,soledad de doblado,19.05,-96.4167,20.34,96,15,1.14,MX,1700375646
272,atar,20.5169,-13.0499,22.26,18,0,4.69,MR,1700375647
273,lihue,21.9789,-159.3672,23.77,86,100,5.66,US,1700375647
274,kyenjojo,0.6328,30.6214,23.0,73,64,0.91,UG,1700375648
275,happy valley-goose bay,53.3168,-60.3315,-1.83,86,100,6.69,CA,1700375648
276,inari,68.906,27.0288,-18.89,98,56,1.58,FI,1700375648
277,fedorovka,53.6314,62.7078,-3.56,46,0,4.43,KZ,1700375649
278,sabang,5.8933,95.3214,27.9,80,89,8.59,ID,1700375649
279,san luis,-33.295,-66.3356,16.56,34,100,2.77,AR,1700375649
280,peniche,39.3558,-9.3811,14.5,97,18,2.99,PT,1700375649
281,takayama,36.1333,137.25,8.47,86,32,1.32,JP,1700375408
282,port elizabeth,-33.918,25.5701,21.29,78,99,0.89,ZA,1700375388
283,papao,-17.75,-149.55,27.59,83,65,11.82,PF,1700375650
284,venice,27.0998,-82.4543,21.1,91,0,1.34,US,1700375467
285,ambovombe,-25.1667,46.0833,31.07,49,0,1.89,MG,1700375651
286,akrehamn,59.2667,5.1833,6.34,87,100,12.35,NO,1700375651
287,arraial do cabo,-22.9661,-42.0278,23.7,92,100,1.3,BR,1700375652
288,slupca,52.2873,17.8719,0.11,79,100,6.37,PL,1700375652
289,smara,26.7384,-11.6719,18.79,24,0,3.24,EH,1700375652
290,labytnangi,66.6572,66.4183,-24.66,93,15,1.69,RU,1700375653
291,tyukalinsk,55.8732,72.1967,-8.1,87,11,5.18,RU,1700375653
292,arkhara,49.4212,130.0842,-7.35,96,95,2.68,RU,1700375653
293,atafu village,-8.5421,-172.5159,29.68,77,99,8.25,TK,1700375653
294,togur,58.3631,82.8265,-8.81,76,100,8.94,RU,1700375654
295,patterson,37.4716,-121.1297,15.57,87,91,1.71,US,1700375654
296,gilgit,35.9221,74.3087,14.64,30,100,0.33,PK,1700375655
297,el nido,11.1858,119.3956,29.05,71,61,3.71,PH,1700375655
298,rabo de peixe,37.8,-25.5833,17.21,99,20,7.72,PT,1700375656
299,likiep,9.8251,169.3107,28.19,78,6,7.72,MH,1700375656
300,horta,38.5333,-28.6333,15.01,82,42,8.05,PT,1700375657
301,ilulissat,69.2167,-51.1,0.01,93,75,2.06,GL,1700375657
302,mbanza-ngungu,-5.25,14.8667,22.43,92,100,1.47,CD,1700375657
303,homestead meadows south,31.811,-106.1643,20.71,46,47,4.93,US,1700375658
304,mili,6.0815,171.735,28.57,77,83,5.41,MH,1700375658
305,guymon,36.6828,-101.4816,13.0,76,0,6.69,US,1700375658
306,kiunga,-6.1219,141.2906,28.28,88,99,1.06,PG,1700375659
307,horn,51.8715,8.9451,10.99,92,78,8.53,DE,1700375659
308,great bend,38.3645,-98.7648,14.07,63,75,7.2,US,1700375660
309,kuna,43.4918,-116.4201,11.34,79,100,7.2,US,1700375660
310,heishan,41.6892,122.1128,5.92,58,0,3.96,CN,1700375660
311,gelemso,8.8167,40.5167,19.07,78,99,3.27,ET,1700375661
312,holualoa,19.6228,-155.9522,23.91,77,75,0.89,US,1700375661
313,kathmandu,27.7167,85.3167,21.62,50,20,2.06,NP,1700374818
314,san julian,21.0167,-102.1667,14.88,47,3,1.79,MX,1700375661
315,urucara,-2.5364,-57.76,28.49,51,100,0.64,BR,1700375662
316,kapa'a,22.0752,-159.319,24.18,89,100,5.66,US,1700375662
317,galliano,29.4422,-90.2992,14.0,88,0,2.06,US,1700375662
318,weyburn,49.6668,-103.8511,1.12,75,1,3.6,CA,1700375663
319,chibougamau,49.9168,-74.3659,-4.21,93,100,2.06,CA,1700375663
320,santana,-0.0583,-51.1817,28.1,83,0,2.57,BR,1700375663
321,sinop,41.7711,34.8709,8.38,70,12,5.65,TR,1700375664
322,kerikeri,-35.2268,173.9474,18.84,92,55,0.89,NZ,1700375664
323,west end,26.6833,-78.9667,20.99,75,1,7.8,BS,1700375665
324,mocimboa,-11.3167,40.35,31.81,57,55,3.76,MZ,1700375665
325,ondjiva,-17.0667,15.7333,27.43,43,100,4.12,AO,1700375665
326,ghat,24.9647,10.1728,17.57,33,4,0.29,LY,1700375666
327,pacocha,-17.5833,-71.3333,17.52,86,31,1.54,PE,1700375666
328,nha trang,12.25,109.1833,28.0,71,99,5.58,VN,1700375366
329,magomeni,-6.8,39.25,29.34,68,74,3.82,TZ,1700375667
330,antofagasta,-23.65,-70.4,16.6,85,39,0.52,CL,1700375668
331,pasian di prato,46.0486,13.1875,6.89,78,0,2.06,IT,1700375668
332,molochnoye,59.2917,39.6787,-5.93,78,81,2.68,RU,1700375668
333,machali,-34.1833,-70.6667,13.21,60,49,1.13,CL,1700375669
334,nishinoomote,30.7333,131.0,17.31,59,75,8.75,JP,1700375669
335,wailua homesteads,22.0669,-159.378,23.44,89,100,5.66,US,1700375669
336,mount pearl,47.5166,-52.7813,11.58,95,100,12.86,CA,1700375669
337,madera,37.1666,-119.8343,16.1,90,68,1.25,US,1700375670
338,sinan,34.8262,126.1086,15.06,67,0,8.92,KR,1700375670
339,sandnessjoen,66.0217,12.6316,-7.71,83,91,4.73,NO,1700375670
340,gunnedah,-30.9833,150.25,28.69,31,100,4.0,AU,1700375671
341,megion,61.0296,76.1136,-15.99,92,53,5.7,RU,1700375671
342,antsiranana,-12.2787,49.2917,31.42,51,40,7.2,MG,1700375671
343,payakumbuh,-0.2202,100.6308,27.06,80,100,1.44,ID,1700375672
344,luanda,-8.8368,13.2343,25.0,94,75,1.03,AO,1700375672
345,den burg,53.0542,4.7972,12.76,84,75,10.8,NL,1700375672
346,la'ie,21.6477,-157.9253,25.98,75,60,2.45,US,1700375673
347,korla,41.7597,86.1469,7.14,30,100,1.49,CN,1700375673
348,puerto deseado,-47.7503,-65.8938,6.69,64,1,6.24,AR,1700375674
349,acapulco de juarez,16.8634,-99.8901,27.9,83,0,1.54,MX,1700375674
350,belmonte,-15.8631,-38.8828,24.24,85,13,4.83,BR,1700375674
351,toliara,-23.35,43.6667,29.29,57,0,4.79,MG,1700375675
352,chos malal,-37.3781,-70.2709,9.89,49,100,3.95,AR,1700375675
353,amahai,-3.3333,128.9167,29.68,63,20,3.52,ID,1700375676
354,isiro,2.7739,27.616,25.07,75,90,1.8,CD,1700375677
355,al hazm,16.1641,44.7769,26.09,42,77,3.3,YE,1700375677
356,badger,64.8,-147.5333,-13.86,85,100,1.54,US,1700375677
357,shirvan,39.9509,48.8994,15.41,60,100,1.14,AZ,1700375678
358,new norfolk,-42.7826,147.0587,17.72,55,97,1.91,AU,1700375678
359,mersa matruh,31.3525,27.2453,20.51,48,34,12.42,EG,1700375679
360,kalaleh,37.3807,55.4916,25.78,31,0,5.14,IR,1700375679
361,qom,34.6401,50.8764,18.51,31,0,1.27,IR,1700375679
362,dolinsk,47.35,142.8,2.07,80,58,5.29,RU,1700375680
363,luanco,43.6152,-5.7934,14.45,90,48,1.86,ES,1700375680
364,marsabit,2.3284,37.9899,17.62,94,100,5.22,KE,1700375680
365,bauang,16.5,120.3667,27.28,74,50,3.03,PH,1700375681
366,wanxian,30.8039,108.3897,19.72,49,0,0.38,CN,1700375681
367,naze,28.3667,129.4833,17.51,60,99,4.4,JP,1700375423
368,kitimat,54.0524,-128.6534,5.38,64,100,0.49,CA,1700375682
369,lubao,14.9167,120.55,32.04,55,24,4.3,PH,1700375682
370,storm lake,42.6411,-95.2097,5.12,60,0,1.54,US,1700375683
371,tavda,58.0425,65.2726,-9.06,82,97,3.58,RU,1700375683
372,mejit,10.2753,170.8646,28.06,75,3,7.45,MH,1700375683
373,rabaul,-4.1967,152.1721,28.68,76,0,5.06,PG,1700375684
374,nantucket,41.2835,-70.0995,4.06,71,0,7.2,US,1700375684
375,hilo,19.7297,-155.09,22.85,84,100,1.54,US,1700375684
376,chonchi,-42.6128,-73.8092,9.51,98,67,1.03,CL,1700375684
377,tucurui,-3.7661,-49.6725,26.26,71,68,1.09,BR,1700375685
378,aleg,17.0481,-13.9209,27.32,19,100,1.81,MR,1700375685
379,sfizef,35.2346,-0.2444,8.72,40,0,2.02,DZ,1700375685
380,smithers,54.7804,-127.1743,3.18,100,100,0.0,CA,1700375686
381,boende,-0.2167,20.8667,24.28,95,100,0.35,CD,1700375686
382,konya,38.1667,32.5,1.71,62,5,2.93,TR,1700375687
383,adam,22.3756,57.5233,27.0,47,0,2.38,OM,1700375539
384,kapuskasing,49.4169,-82.4331,-4.95,93,100,5.14,CA,1700375687
385,bandar abbas,27.1865,56.2808,28.99,58,4,1.03,IR,1700375688
386,fort st. john,56.2499,-120.8529,3.94,75,75,2.06,CA,1700375688
387,rawson,-43.3002,-65.1023,12.03,56,2,10.33,AR,1700375689
388,lompoc,34.6391,-120.4579,15.43,88,100,4.02,US,1700375690
389,meleuz,52.9667,55.9167,-3.67,46,0,1.9,RU,1700375690
390,mount pleasant,32.7941,-79.8626,16.22,93,0,2.57,US,1700375690
391,kalifornsky,60.4183,-151.29,-21.83,84,0,1.54,US,1700375691
392,la ronge,55.1001,-105.2842,3.14,87,75,3.6,CA,1700375691
393,tranqueras,-31.2,-55.75,9.91,72,0,1.09,UY,1700375691
394,waingapu,-9.6567,120.2641,31.25,60,26,5.14,ID,1700375692
395,mitu,1.1983,-70.1733,22.73,98,78,0.64,CO,1700375412
396,banda aceh,5.5577,95.3222,29.36,71,88,3.02,ID,1700375692
397,suva,-18.1416,178.4415,25.71,78,40,3.09,FJ,1700375693
398,kill devil hills,36.0307,-75.676,12.77,59,0,7.2,US,1700375693
399,hun,29.1268,15.9477,15.57,71,0,4.16,LY,1700375693
400,xinqing,48.2333,129.5,-3.89,81,98,4.14,CN,1700375693
401,krishnarajpet,12.655,76.4883,27.65,55,100,4.88,IN,1700375694
402,tigaon,13.6331,123.4968,24.82,93,100,3.2,PH,1700375694
403,vadso,70.0744,29.7487,-7.91,86,75,5.14,NO,1700375695
404,yeraliyev,43.2,51.65,12.02,46,100,10.82,KZ,1700375695
405,khvoynaya,58.9,34.5333,-7.38,92,100,1.75,RU,1700375696
406,westport,41.1415,-73.3579,5.42,64,0,1.54,US,1700375696
407,porto novo,6.4965,2.6036,26.9,84,100,1.9,BJ,1700375696
408,suda,59.1525,37.5582,-6.94,90,100,2.38,RU,1700375696
409,gobabis,-22.45,18.9667,25.45,26,100,2.88,NA,1700375697
410,bani walid,31.7566,13.9942,17.32,61,98,5.17,LY,1700375697
411,kurmuk,10.55,34.2833,28.54,59,96,1.32,SD,1700375698
412,st. john's,47.5649,-52.7093,12.04,95,100,12.86,CA,1700375698
413,kangding,30.0513,101.9603,13.86,36,93,1.67,CN,1700375698
414,arenal,8.4593,-73.9433,23.49,98,100,0.88,CO,1700375699
415,sinabang,2.4803,96.3801,27.93,79,98,1.79,ID,1700375699
416,qamdo,31.1667,97.2333,4.01,15,0,3.62,CN,1700375699
417,puerto pilon,9.3644,-79.7933,25.45,89,94,0.84,PA,1700375699
418,barentu,15.1139,37.5928,27.25,54,100,0.69,ER,1700375700
419,mirganj,28.55,79.2,26.59,33,0,3.23,IN,1700375412
420,mariental,-24.6333,17.9667,28.03,17,91,3.54,NA,1700375414
421,kralendijk,12.15,-68.2667,27.99,89,100,4.63,BQ,1700375701
422,floro,61.5996,5.0328,5.98,45,100,7.2,NO,1700375701
423,taco pozo,-25.6167,-63.2833,21.27,70,0,2.38,AR,1700375702
424,dhidhdhoo,6.8833,73.1,28.07,72,100,1.33,MV,1700375497
425,tralee,52.2704,-9.7026,12.27,92,100,9.79,IE,1700375703
426,remire-montjoly,4.9167,-52.2667,26.02,94,40,0.51,GF,1700375703
427,wafangdian,39.6183,122.0081,8.08,49,0,6.68,CN,1700375704
428,karukh,34.4811,62.5863,16.26,40,0,1.76,AF,1700375705
429,port saint john's,-31.6229,29.5448,26.05,67,4,4.34,ZA,1700375705
430,nouadhibou,20.931,-17.0347,21.99,43,0,4.63,MR,1700375588
431,timbuktu,16.7735,-3.0074,24.32,17,100,3.89,ML,1700375706
432,guntakal junction,15.1667,77.3833,29.65,48,100,5.4,IN,1700375706
433,bardai,11.65,7.2333,21.47,24,100,6.03,NG,1700375707
434,orita eruwa,7.55,3.4333,25.34,85,100,1.32,NG,1700375707
435,constantia,44.1833,28.65,2.61,85,100,17.27,RO,1700375707
436,valozhyn,54.0909,26.5225,-0.86,93,100,2.75,BY,1700375708
437,punta cana,18.5818,-68.4043,22.87,100,100,2.57,DO,1700375708
438,midland,31.9974,-102.0779,13.78,92,100,4.63,US,1700375709
439,hasaki,35.7333,140.8333,19.22,46,100,5.22,JP,1700375709
440,arteche,12.2645,125.4048,26.83,89,100,6.06,PH,1700375710
441,itatinga,-23.1017,-48.6158,22.68,62,100,1.38,BR,1700375710
442,nefteyugansk,61.0998,72.6035,-16.69,95,100,4.02,RU,1700375711
443,kuvshinovo,57.0295,34.1725,-8.26,89,100,1.7,RU,1700375711
444,kruisfontein,-34.0033,24.7314,23.55,40,100,1.29,ZA,1700375711
445,waajid,3.8096,43.2463,25.46,79,100,4.99,SO,1700375712
446,ponta delgada,37.7333,-25.6667,17.88,72,20,7.72,PT,1700375662
447,zhezqazghan,47.7833,67.7667,1.32,80,75,4.0,KZ,1700375712
448,volksrust,-27.3654,29.8818,27.38,30,4,1.02,ZA,1700375713
449,muromtsevo,56.3724,75.2418,-7.23,79,47,4.75,RU,1700375713
450,necocli,8.4234,-76.786,24.8,93,100,3.46,CO,1700375713
451,illizi,26.4833,8.4667,11.89,31,0,2.6,DZ,1700375713
452,alice springs,-23.7,133.8833,28.75,48,75,2.57,AU,1700375714
453,mwinilunga,-11.7358,24.4293,26.15,51,100,1.3,ZM,1700375714
454,chililabombwe,-12.3648,27.8229,27.0,43,69,3.77,ZM,1700375715
455,port blair,11.6667,92.75,30.02,74,40,4.12,IN,1700375715
456,aromashevo,56.8602,68.6375,-5.98,69,27,5.69,RU,1700375716
457,heze,35.2431,115.4411,18.49,20,0,3.6,CN,1700375668
458,klaksvik,62.2266,-6.589,8.51,91,100,15.45,FO,1700375716
459,senillosa,-39.0,-68.4167,12.88,53,3,8.04,AR,1700375717
460,homer,59.6425,-151.5483,-3.07,64,0,0.0,US,1700375717
461,livingston,55.9029,-3.5226,10.07,87,75,6.17,GB,1700375718
462,tallinn,59.437,24.7535,-1.7,74,100,2.57,EE,1700375205
463,dalbandin,28.8947,64.4101,22.67,31,0,3.24,PK,1700375718
464,jinchang,38.4953,102.1739,12.08,11,0,1.62,CN,1700375718
465,funafuti,-8.5243,179.1942,30.0,84,75,5.66,TV,1700375718
466,kudahuvadhoo,2.6708,72.8944,28.21,74,83,3.09,MV,1700375719
467,mongoumba,3.6415,18.5936,23.93,92,100,1.83,CF,1700375719
468,ad dilam,23.9915,47.1627,23.23,42,3,5.31,SA,1700375719
469,milazzo,38.2212,15.2383,17.77,65,5,1.79,IT,1700375720
470,yilan,24.757,121.753,23.92,54,9,2.18,TW,1700375067
471,luau,-10.7073,22.2247,20.7,89,100,1.93,AO,1700375720
472,san pedro,14.35,121.0167,31.57,66,40,4.92,PH,1700375562
473,maintirano,-18.0667,44.0167,31.96,49,100,3.54,MG,1700375721
474,gao,16.6362,1.637,21.92,19,25,5.91,ML,1700375721
475,dzilam gonzalez,21.2833,-88.9333,21.41,93,9,0.48,MX,1700375722
476,valparaiso,-33.0393,-71.6273,10.8,87,0,1.03,CL,1700375722
477,nozhay-yurt,43.0933,46.3786,11.71,63,86,0.39,RU,1700375722
478,huancabamba,-5.2386,-79.4506,14.7,94,98,1.22,PE,1700375722
479,susuman,62.7833,148.1667,-27.55,99,94,1.26,RU,1700375723
480,lazaro cardenas,17.9583,-102.2,25.73,89,28,1.91,MX,1700375723
481,taro,-8.3862,115.28,26.03,66,70,2.23,ID,1700375723
482,san isidro,-12.1167,-77.05,18.34,85,0,2.57,PE,1700375724
483,al hada,21.3675,40.2869,17.66,65,68,3.85,SA,1700375724
484,narvik,68.4384,17.4272,-1.77,90,98,0.96,NO,1700375724
485,daru,-9.0763,143.2092,28.18,72,71,5.59,PG,1700375725
486,christchurch,-43.5333,172.6333,16.97,72,75,4.12,NZ,1700375265
487,el granada,37.5027,-122.4694,14.64,85,75,11.32,US,1700375726
488,sisimiut,66.9395,-53.6735,-1.07,83,98,12.05,GL,1700375727
489,sittwe,20.15,92.9,27.82,73,100,1.91,MM,1700375727
490,yarmouth,41.7057,-70.2286,4.98,74,0,9.83,US,1700375728
491,ipatovo,45.7181,42.9036,5.84,75,100,9.99,RU,1700375728
492,blendecques,50.7184,2.286,13.36,83,16,9.1,FR,1700375728
493,natal,-5.795,-35.2094,26.36,83,40,2.57,BR,1700375729
494,sambava,-14.2667,50.1667,27.6,71,53,5.69,MG,1700375729
495,shimoda,34.6667,138.95,17.2,66,100,9.04,JP,1700375481
496,hotan,37.0997,79.9269,11.09,14,79,1.92,CN,1700375729
497,ejea de los caballeros,42.1263,-1.1372,5.12,69,15,1.42,ES,1700375730
498,savanna-la-mar,18.219,-78.1332,27.74,82,54,1.34,JM,1700375730
499,springbok,-29.6643,17.8865,21.53,27,79,1.68,ZA,1700375730
500,great falls,47.5002,-111.3008,7.45,63,0,5.66,US,1700375731
501,zhaqsy,51.9083,67.3133,-4.81,54,5,3.96,KZ,1700375731
502,derazhnya,49.2692,27.4338,-1.89,74,7,4.24,UA,1700375731
503,matelandia,-25.2408,-53.9964,18.03,97,99,1.61,BR,1700375731
504,ara nova,41.9273,12.2397,13.42,81,20,2.57,IT,1700375732
505,fort mcmurray,56.7268,-111.381,-0.23,93,100,1.03,CA,1700375732
506,nzerekore,7.7562,-8.8179,20.92,99,100,0.2,GN,1700375732
507,palmas,-10.2128,-48.3603,23.93,100,20,2.06,BR,1700375733
508,baruun-urt,46.6806,113.2792,-4.37,86,8,3.45,MN,1700375733
509,palangkaraya,-2.2,113.8333,30.74,66,93,0.29,ID,1700375473
510,wynyard,-41.0,145.7167,19.51,54,17,4.72,AU,1700375733
511,sao joao da barra,-21.6403,-41.0511,23.53,88,23,5.37,BR,1700375734
512,mudon,16.2578,97.7164,29.47,58,54,2.83,MM,1700375734
513,monett,36.929,-93.9277,9.39,68,0,3.09,US,1700375734
514,villa gesell,-37.2639,-56.973,8.36,58,0,5.16,AR,1700375735
515,amga,60.8953,131.9608,-23.13,100,100,0.97,RU,1700375735
516,fomboni,-12.28,43.7425,27.92,79,12,4.25,KM,1700375736
517,xilin hot,43.9667,116.0333,0.35,70,0,3.07,CN,1700375550
518,xining,36.6167,101.7667,9.03,18,0,1.17,CN,1700375736
519,choibalsan,48.0667,114.5,-3.48,86,11,2.57,MN,1700375737
520,sogndal,61.2283,7.1003,0.21,63,100,4.63,NO,1700375737
521,villa dolores,-31.9459,-65.1896,16.11,33,10,0.49,AR,1700375738
522,namdrik,5.5994,168.1028,28.65,77,5,5.58,MH,1700375738
523,olyokminsk,60.3736,120.4264,-8.78,98,100,1.57,RU,1700375738
524,namibe,-15.1961,12.1522,26.06,64,93,2.63,AO,1700375738
525,cole harbour,44.6724,-63.4751,6.71,91,100,9.26,CA,1700375739
526,manta,-0.95,-80.7333,23.88,83,100,4.12,EC,1700375739
527,huittinen,61.1833,22.7,-5.54,97,15,1.61,FI,1700375740
528,iquique,-20.2208,-70.1431,18.02,72,2,0.52,CL,1700375740
529,tambopata,-12.7333,-69.1833,27.52,62,100,1.81,PE,1700375740
530,moron,-34.6534,-58.6198,16.86,53,0,2.24,AR,1700375741
531,chernyshevskiy,63.0128,112.4714,-6.59,96,100,2.62,RU,1700375741
532,acarau,-2.8856,-40.12,26.42,80,65,5.4,BR,1700375679
533,zambezi,-13.5432,23.1047,29.75,37,100,2.22,ZM,1700375741
534,quellon,-43.1167,-73.6167,7.93,93,85,2.88,CL,1700375742
535,naberera,-4.2,36.9333,21.34,66,82,3.65,TZ,1700375742
536,beyneu,45.3167,55.2,9.04,61,99,6.75,KZ,1700375742
537,santa terezinha,-29.9002,-50.0904,18.2,84,100,5.0,BR,1700375742
538,usinsk,65.9939,57.5281,-12.18,96,95,4.02,RU,1700375743
539,shubarshi,48.5872,57.1869,0.43,46,2,3.12,KZ,1700375743
540,knysna,-34.0363,23.0471,22.06,50,100,2.88,ZA,1700375718
541,warrenpoint,54.0995,-6.2509,11.16,90,100,5.49,GB,1700375744
542,fuerte olimpo,-21.0415,-57.8738,28.41,60,100,1.06,PY,1700375744
543,houghton,47.1219,-88.569,1.86,82,75,2.57,US,1700375744
544,olinda,-8.0089,-34.8553,26.85,78,40,3.09,BR,1700375745
545,ulsteinvik,62.3432,5.8487,5.42,62,100,4.02,NO,1700375745
546,soufriere,13.8562,-61.0566,27.78,83,20,8.23,LC,1700375745
547,iwanai,42.9744,140.5089,7.91,72,99,6.55,JP,1700375742
548,pendleton,45.6721,-118.7886,2.78,93,100,0.0,US,1700375746
549,ceerigaabo,10.6162,47.368,19.44,66,23,1.92,SO,1700375746
550,saint-laurent-du-maroni,5.5039,-54.0289,23.49,99,37,0.9,GF,1700375522
